City_ID,City,Country,Lat,Lng,Max Temp,Humidity,Cloudiness,Wind Speed,Weather Condition,Date
0,Georgetown,MY,5.41,100.34,80.6,94,20,2.24,few clouds,2020-07-31 01:09:04
1,Arraial Do Cabo,BR,-22.97,-42.03,67.41,81,100,14.81,overcast clouds,2020-07-31 01:13:31
2,Punta Arenas,CL,-53.15,-70.92,35.6,93,100,14.99,overcast clouds,2020-07-31 01:13:31
3,Sinnamary,GF,5.38,-52.95,78.57,80,17,4.85,few clouds,2020-07-31 01:13:31
4,Zarubino,RU,42.63,131.09,74.05,78,81,4.72,broken clouds,2020-07-31 01:13:31
5,San Angelo,US,31.46,-100.44,96.8,32,1,16.11,clear sky,2020-07-31 01:11:12
6,Vaini,TO,-21.2,-175.2,75.2,69,40,13.87,scattered clouds,2020-07-31 01:13:31
7,Ushuaia,AR,-54.8,-68.3,33.8,74,20,5.82,few clouds,2020-07-31 01:13:31
8,Sur,OM,22.57,59.53,90.07,57,23,5.17,few clouds,2020-07-31 01:13:31
9,Olafsvik,IS,64.89,-23.71,50.58,76,100,8.75,overcast clouds,2020-07-31 01:13:31
10,Zhigansk,RU,66.77,123.37,58.32,60,0,12.57,clear sky,2020-07-31 01:13:31
11,Dongtai,CN,32.85,120.31,78.75,94,100,3.62,moderate rain,2020-07-31 01:15:16
12,Benguela,AO,-12.58,13.41,68.52,86,0,5.61,clear sky,2020-07-31 01:18:58
13,Avarua,CK,-21.21,-159.78,71.6,56,100,4.7,overcast clouds,2020-07-31 01:12:14
14,Butaritari,KI,3.07,172.79,82.94,74,91,8.99,light rain,2020-07-31 01:13:32
15,Busselton,AU,-33.65,115.33,52.0,100,14,3.69,few clouds,2020-07-31 01:13:32
16,Yeppoon,AU,-23.13,150.73,69.8,46,37,13.87,scattered clouds,2020-07-31 01:13:32
17,Vila Do Maio,CV,15.13,-23.22,78.8,74,75,11.41,broken clouds,2020-07-31 01:13:32
18,Albany,US,42.6,-73.97,77.0,57,61,1.99,broken clouds,2020-07-31 01:13:32
19,Wangaratta,AU,-36.37,146.33,51.01,75,0,3.36,clear sky,2020-07-31 01:13:32
20,Hasaki,JP,35.73,140.83,77.0,100,75,2.24,shower rain,2020-07-31 01:13:32
21,Okhotsk,RU,59.38,143.3,64.74,48,0,2.19,clear sky,2020-07-31 01:13:33
22,Fortuna,US,40.6,-124.16,66.0,82,3,3.0,clear sky,2020-07-31 01:18:58
23,Warmbad,NA,-28.45,18.73,57.04,34,0,8.66,clear sky,2020-07-31 01:18:59
24,Kysyl-Syr,RU,63.9,122.76,69.6,51,0,4.36,clear sky,2020-07-31 01:18:59
25,Kaitangata,NZ,-46.28,169.85,57.0,65,82,4.0,broken clouds,2020-07-31 01:18:59
26,Pevek,RU,69.7,170.31,36.19,97,100,9.4,light rain,2020-07-31 01:18:59
27,Bethel,US,41.37,-73.41,75.2,88,1,4.09,clear sky,2020-07-31 01:09:26
28,Tefe,BR,-3.35,-64.71,73.81,60,0,1.77,clear sky,2020-07-31 01:13:33
29,Khatanga,RU,71.97,102.5,68.02,39,1,14.56,clear sky,2020-07-31 01:13:33
30,Rikitea,PF,-23.12,-134.97,73.31,89,100,11.05,overcast clouds,2020-07-31 01:13:33
31,Ranau,MY,5.95,116.66,78.8,88,20,2.24,few clouds,2020-07-31 01:11:15
32,Ribeira Grande,PT,38.52,-28.7,70.12,74,13,11.95,few clouds,2020-07-31 01:13:34
33,Padrauna,IN,26.9,83.98,78.8,100,75,6.93,thunderstorm with light rain,2020-07-31 01:18:59
34,Cape Town,ZA,-33.93,18.42,50.0,87,0,3.36,clear sky,2020-07-31 01:14:14
35,La Ronge,CA,55.1,-105.28,75.2,60,75,9.17,broken clouds,2020-07-31 01:19:00
36,Atuona,PF,-9.8,-139.03,79.0,73,28,16.49,scattered clouds,2020-07-31 01:19:00
37,Itaqui,BR,-29.13,-56.55,49.51,93,0,7.09,clear sky,2020-07-31 01:19:00
38,Ancud,CL,-41.87,-73.82,48.0,93,90,11.41,overcast clouds,2020-07-31 01:19:00
39,Jamestown,US,42.1,-79.24,71.6,60,1,3.36,clear sky,2020-07-31 01:13:34
40,Mumbwa,ZM,-14.98,27.06,53.82,62,0,4.63,clear sky,2020-07-31 01:13:34
41,Saldanha,ZA,-33.01,17.94,48.2,87,0,3.36,clear sky,2020-07-31 01:13:34
42,Port Elizabeth,ZA,-33.92,25.57,53.6,87,0,5.82,clear sky,2020-07-31 01:13:35
43,Provideniya,RU,64.38,-173.3,50.0,76,75,15.66,broken clouds,2020-07-31 01:13:35
44,Barrow,US,71.29,-156.79,37.4,93,90,8.05,overcast clouds,2020-07-31 01:10:01
45,Nanortalik,GL,60.14,-45.24,43.63,89,100,5.32,overcast clouds,2020-07-31 01:13:35
46,Turek,PL,52.02,18.5,55.0,85,0,2.42,clear sky,2020-07-31 01:13:35
47,Lasa,IT,46.62,10.7,64.0,93,20,4.7,few clouds,2020-07-31 01:13:35
48,Hirara,JP,24.8,125.28,89.6,70,75,14.99,broken clouds,2020-07-31 01:13:35
49,Arlit,NE,18.74,7.39,93.65,12,6,4.61,clear sky,2020-07-31 01:13:35
50,Olenino,RU,56.21,33.49,49.41,97,40,7.34,scattered clouds,2020-07-31 01:13:35
51,Mar Del Plata,AR,-38.0,-57.56,46.99,87,0,13.87,clear sky,2020-07-31 01:13:35
52,Murgab,TM,37.5,61.97,82.4,45,40,11.41,scattered clouds,2020-07-31 01:13:35
53,Katangli,RU,51.71,143.23,57.22,88,100,9.44,overcast clouds,2020-07-31 01:13:36
54,Tazovskiy,RU,67.47,78.7,53.35,99,100,6.73,light rain,2020-07-31 01:13:36
55,Moose Factory,CA,51.26,-80.61,71.6,78,20,2.24,few clouds,2020-07-31 01:13:36
56,Tasiilaq,GL,65.61,-37.64,44.6,70,8,3.71,clear sky,2020-07-31 01:13:36
57,Asino,RU,57.0,86.15,56.25,89,0,4.0,clear sky,2020-07-31 01:13:36
58,Tautira,PF,-17.73,-149.15,82.4,74,75,8.05,broken clouds,2020-07-31 01:13:36
59,Norman Wells,CA,65.28,-126.83,75.2,50,40,8.05,scattered clouds,2020-07-31 01:12:13
60,Yar-Sale,RU,66.83,70.83,54.93,77,0,4.18,clear sky,2020-07-31 01:13:36
61,El Naranjo,MX,21.47,-98.6,79.36,87,94,4.65,moderate rain,2020-07-31 01:13:36
62,Luderitz,NA,-26.65,15.16,78.8,15,0,16.11,clear sky,2020-07-31 01:13:36
63,Chuy,UY,-33.7,-53.46,45.63,88,0,8.59,clear sky,2020-07-31 01:13:36
64,Berezna,UA,51.57,31.78,57.78,92,97,5.44,overcast clouds,2020-07-31 01:13:37
65,Trang,TH,7.5,99.5,77.0,100,20,2.24,few clouds,2020-07-31 01:13:37
66,Komsomolets,KZ,53.75,62.07,61.93,87,11,8.08,few clouds,2020-07-31 01:13:37
67,Weyburn,CA,49.67,-103.85,91.0,44,0,5.01,clear sky,2020-07-31 01:10:24
68,Port Macquarie,AU,-31.43,152.92,61.0,72,100,3.0,light rain,2020-07-31 01:08:43
69,Kodiak,US,57.79,-152.41,62.6,67,75,17.22,broken clouds,2020-07-31 01:13:37
70,Caravelas,BR,-17.71,-39.25,71.37,80,0,7.14,clear sky,2020-07-31 01:13:37
71,New Norfolk,AU,-42.78,147.06,55.0,78,100,3.0,overcast clouds,2020-07-31 01:13:37
72,Sernur,RU,56.93,49.15,55.83,93,38,7.83,scattered clouds,2020-07-31 01:13:37
73,Saskylakh,RU,71.92,114.08,61.63,57,0,3.62,clear sky,2020-07-31 01:13:37
74,Bambous Virieux,MU,-20.34,57.76,69.8,88,75,4.7,broken clouds,2020-07-31 01:13:38
75,Tias,ES,28.96,-13.64,73.4,73,90,11.41,overcast clouds,2020-07-31 01:13:38
76,Coruripe,BR,-10.13,-36.18,72.73,85,19,10.63,light rain,2020-07-31 01:13:11
77,Bilibino,RU,68.05,166.44,52.2,59,100,5.23,overcast clouds,2020-07-31 01:13:38
78,Umkomaas,ZA,-30.21,30.8,68.0,91,9,7.58,clear sky,2020-07-31 01:13:38
79,Gewane,ET,10.17,40.65,74.07,86,100,1.92,heavy intensity rain,2020-07-31 01:13:38
80,Saint George,US,37.1,-113.58,108.0,8,1,10.29,clear sky,2020-07-31 01:11:03
81,Dzerzhinskoye,RU,56.83,95.23,59.86,93,100,8.59,overcast clouds,2020-07-31 01:13:38
82,Guerrero Negro,MX,27.98,-114.06,75.13,67,0,15.61,clear sky,2020-07-31 01:13:38
83,Bredasdorp,ZA,-34.53,20.04,50.0,87,0,5.82,clear sky,2020-07-31 01:13:38
84,Seoul,KR,37.57,126.98,80.6,78,1,2.15,clear sky,2020-07-31 01:09:12
85,Manzhouli,CN,49.6,117.43,71.01,70,79,5.37,light rain,2020-07-31 01:13:38
86,Castro,BR,-24.79,-50.01,48.34,90,62,8.93,broken clouds,2020-07-31 01:13:39
87,Manicore,BR,-5.81,-61.3,73.4,88,22,1.5,few clouds,2020-07-31 01:13:39
88,Bluff,NZ,-46.6,168.33,50.94,85,74,6.06,broken clouds,2020-07-31 01:13:39
89,Taoudenni,ML,22.68,-3.98,91.36,35,14,11.83,few clouds,2020-07-31 01:13:39
90,Maungaturoto,NZ,-36.1,174.37,59.0,78,85,4.0,overcast clouds,2020-07-31 01:13:39
91,Yellowknife,CA,62.46,-114.35,71.6,43,40,14.99,scattered clouds,2020-07-31 01:11:51
92,Hermanus,ZA,-34.42,19.23,46.0,94,0,4.36,clear sky,2020-07-31 01:13:39
93,Kirakira,SB,-10.45,161.92,83.26,74,100,3.33,light rain,2020-07-31 01:13:39
94,Mataura,NZ,-46.19,168.86,56.48,65,100,2.91,overcast clouds,2020-07-31 01:11:37
95,Shieli,KZ,44.17,66.75,73.11,33,23,8.03,few clouds,2020-07-31 01:13:39
96,Baykit,RU,61.67,96.37,65.44,66,89,4.41,overcast clouds,2020-07-31 01:13:39
97,Klaksvik,FO,62.23,-6.59,50.0,93,100,19.46,light rain,2020-07-31 01:13:39
98,Auki,SB,-8.77,160.7,83.25,75,39,3.8,light rain,2020-07-31 01:13:40
99,Kyra,RU,49.58,111.98,62.17,82,100,1.03,overcast clouds,2020-07-31 01:13:40
100,Bengkulu,ID,-3.8,102.27,77.11,88,100,8.14,overcast clouds,2020-07-31 01:11:59
101,Thompson,CA,55.74,-97.86,66.2,93,75,3.36,light intensity shower rain,2020-07-31 01:13:40
102,Glendive,US,47.11,-104.71,89.6,31,20,9.17,thunderstorm,2020-07-31 01:13:40
103,Atar,MR,20.52,-13.05,87.73,47,100,7.99,moderate rain,2020-07-31 01:13:40
104,Yulara,AU,-25.24,130.99,57.2,24,0,12.75,clear sky,2020-07-31 01:13:40
105,Vao,NC,-22.67,167.48,72.73,89,49,17.29,light rain,2020-07-31 01:13:40
106,Nikolskoye,RU,59.7,30.79,57.0,87,40,4.47,scattered clouds,2020-07-31 01:13:40
107,Roald,NO,62.58,6.13,57.0,100,2,2.24,clear sky,2020-07-31 01:13:40
108,Houma,US,29.6,-90.72,86.0,74,1,5.82,clear sky,2020-07-31 01:13:40
109,Port Alfred,ZA,-33.59,26.89,55.9,83,2,7.92,clear sky,2020-07-31 01:08:59
110,Alyangula,AU,-13.85,136.42,77.0,53,0,6.93,clear sky,2020-07-31 01:13:41
111,Kaseda,JP,31.42,130.32,87.8,66,40,4.7,scattered clouds,2020-07-31 01:13:41
112,Mgandu,TZ,-5.95,34.13,56.17,87,0,5.68,clear sky,2020-07-31 01:13:41
113,Karla,EE,59.37,24.93,57.99,93,40,2.24,scattered clouds,2020-07-31 01:13:41
114,Hithadhoo,MV,-0.6,73.08,83.17,74,94,8.66,overcast clouds,2020-07-31 01:13:41
115,Chitipa,MW,-9.7,33.27,57.36,93,0,5.46,clear sky,2020-07-31 01:13:41
116,Hilo,US,19.73,-155.09,84.2,54,1,11.41,clear sky,2020-07-31 01:09:11
117,Tuktoyaktuk,CA,69.45,-133.04,66.2,63,75,3.36,broken clouds,2020-07-31 01:13:41
118,Carnarvon,AU,-24.87,113.63,62.6,88,0,11.41,clear sky,2020-07-31 01:13:41
119,Vicuna,CL,-30.03,-70.71,60.01,35,1,6.4,clear sky,2020-07-31 01:13:41
120,Puerto Ayora,EC,-0.74,-90.35,66.99,93,58,1.01,broken clouds,2020-07-31 01:13:42
121,Vila Velha,BR,-20.33,-40.29,75.0,83,75,17.22,light rain,2020-07-31 01:13:42
122,Labuhan,ID,-6.88,112.21,77.45,76,0,11.61,clear sky,2020-07-31 01:13:42
123,Saint-Philippe,RE,-21.36,55.77,68.0,77,20,8.05,few clouds,2020-07-31 01:13:42
124,Nemuro,JP,43.32,145.57,78.8,69,20,6.93,few clouds,2020-07-31 01:13:42
125,Saint-Joseph,RE,-21.37,55.62,68.0,77,20,8.05,few clouds,2020-07-31 01:13:42
126,Sola,VU,-13.88,167.55,82.4,94,90,5.82,overcast clouds,2020-07-31 01:13:42
127,Havre-Saint-Pierre,CA,50.23,-63.6,60.8,100,90,11.41,mist,2020-07-31 01:13:42
128,Marzuq,YE,14.4,46.47,78.4,60,100,3.56,overcast clouds,2020-07-31 01:13:42
129,Hamilton,US,39.18,-84.53,70.0,94,90,6.93,mist,2020-07-31 01:10:08
130,Upernavik,GL,72.79,-56.15,43.36,75,54,5.17,broken clouds,2020-07-31 01:13:42
131,Qaanaaq,GL,77.48,-69.36,41.68,66,0,4.97,clear sky,2020-07-31 01:13:43
132,Noumea,NC,-22.28,166.46,75.0,100,90,5.82,overcast clouds,2020-07-31 01:13:43
133,Boende,CD,-0.22,20.87,73.69,72,0,0.65,clear sky,2020-07-31 01:13:43
134,Cravo Norte,CO,6.3,-70.2,76.69,86,91,5.53,overcast clouds,2020-07-31 01:13:43
135,Morondava,MG,-20.28,44.28,65.53,75,0,14.0,clear sky,2020-07-31 01:13:43
136,Pasighat,IN,28.07,95.33,76.68,89,100,2.37,light rain,2020-07-31 01:13:43
137,Nikolayevsk-Na-Amure,RU,53.14,140.73,64.65,71,100,4.36,overcast clouds,2020-07-31 01:13:43
138,Makat,KZ,47.65,53.35,74.12,47,0,7.25,clear sky,2020-07-31 01:13:43
139,Badou,TG,7.58,0.6,69.73,92,100,3.29,overcast clouds,2020-07-31 01:09:03
140,Iqaluit,CA,63.75,-68.51,51.8,81,90,4.7,overcast clouds,2020-07-31 01:13:43
141,Ontario,US,34.06,-117.65,98.6,17,20,12.75,smoke,2020-07-31 01:09:24
142,Camacha,PT,33.08,-16.33,68.0,72,75,8.05,broken clouds,2020-07-31 01:13:44
143,Nayoro,JP,44.35,142.46,75.54,64,52,4.81,broken clouds,2020-07-31 01:13:44
144,Mount Gambier,AU,-37.83,140.77,46.4,93,100,5.82,overcast clouds,2020-07-31 01:13:44
145,Port Blair,IN,11.67,92.75,81.43,79,100,16.11,light rain,2020-07-31 01:13:44
146,Beloha,MG,-25.17,45.05,59.41,87,2,4.47,clear sky,2020-07-31 01:13:44
147,Miyazu,JP,35.53,135.18,80.6,78,75,4.7,broken clouds,2020-07-31 01:13:44
148,Sao Joao Da Barra,BR,-21.64,-41.05,68.34,82,100,19.8,light rain,2020-07-31 01:13:44
149,Puerto Colombia,CO,10.99,-74.95,78.8,83,20,4.7,few clouds,2020-07-31 01:13:42
150,Constitucion,CL,-35.33,-72.42,51.06,81,100,3.36,overcast clouds,2020-07-31 01:13:44
151,Rodrigues Alves,BR,-7.74,-72.65,75.56,68,29,2.93,scattered clouds,2020-07-31 01:13:44
152,Oktyabrskiy,RU,54.48,53.47,61.14,93,76,4.47,broken clouds,2020-07-31 01:13:45
153,Dikson,RU,73.51,80.55,53.98,69,100,11.95,overcast clouds,2020-07-31 01:13:45
154,Amga,RU,60.9,131.96,69.93,37,38,5.28,scattered clouds,2020-07-31 01:13:45
155,Goure,NE,13.98,10.27,80.19,68,94,15.55,overcast clouds,2020-07-31 01:13:45
156,Etchoropo,MX,26.77,-109.67,93.0,54,2,7.0,clear sky,2020-07-31 01:13:45
157,Milford,US,41.22,-73.06,78.8,69,1,9.1,clear sky,2020-07-31 01:13:45
158,Wilmington,US,34.23,-77.94,82.99,78,75,12.75,broken clouds,2020-07-31 01:09:40
159,Peniche,PT,39.36,-9.38,64.99,86,91,7.0,overcast clouds,2020-07-31 01:13:45
160,Lebu,CL,-37.62,-73.65,49.6,92,66,12.21,broken clouds,2020-07-31 01:13:45
161,Kawalu,ID,-7.38,108.21,72.1,68,6,0.6,clear sky,2020-07-31 01:13:45
162,Poum,NC,-20.23,164.02,73.51,90,21,12.06,few clouds,2020-07-31 01:13:46
163,Kiunga,PG,-6.12,141.29,78.22,76,98,5.84,overcast clouds,2020-07-31 01:13:46
164,Torbay,CA,47.67,-52.73,59.0,100,90,2.93,overcast clouds,2020-07-31 01:13:46
165,Husavik,IS,66.04,-17.34,48.2,93,90,2.24,overcast clouds,2020-07-31 01:13:46
166,Kapaa,US,22.08,-159.32,82.4,65,75,16.11,broken clouds,2020-07-31 01:13:46
167,Kavieng,PG,-2.57,150.8,85.39,73,100,9.75,light rain,2020-07-31 01:13:46
168,Lodhran,PK,29.54,71.63,94.55,45,0,11.43,clear sky,2020-07-31 01:13:46
169,Bouna,CI,9.27,-3.0,72.39,81,21,4.16,few clouds,2020-07-31 01:13:46
170,Mingyue,CN,43.11,128.92,78.31,68,100,4.88,overcast clouds,2020-07-31 01:13:46
171,Caucasia,CO,7.99,-75.19,77.56,93,100,4.61,moderate rain,2020-07-31 01:13:46
172,Hobyo,SO,5.35,48.53,77.47,79,99,23.33,overcast clouds,2020-07-31 01:13:46
173,Salalah,OM,17.02,54.09,82.4,94,75,4.7,broken clouds,2020-07-31 01:13:47
174,Axim,GH,4.87,-2.24,74.71,84,99,8.34,overcast clouds,2020-07-31 01:13:47
175,Bilma,NE,18.69,12.92,91.63,23,96,7.29,overcast clouds,2020-07-31 01:13:47
176,Komsomolskiy,UZ,40.43,71.72,78.8,41,97,4.7,overcast clouds,2020-07-31 01:13:47
177,Aklavik,CA,68.22,-135.01,77.0,41,40,13.87,smoke,2020-07-31 01:13:47
178,Kailua,US,21.4,-157.74,82.0,69,75,10.29,broken clouds,2020-07-31 01:13:47
179,Kerouane,GN,9.27,-9.02,69.15,92,100,2.75,overcast clouds,2020-07-31 01:13:47
180,Hobart,AU,-42.88,147.33,55.0,66,75,10.29,broken clouds,2020-07-31 01:13:47
181,Tuatapere,NZ,-46.13,167.68,54.93,81,100,3.13,overcast clouds,2020-07-31 01:13:47
182,Talnakh,RU,69.49,88.4,69.8,52,7,20.13,clear sky,2020-07-31 01:13:47
183,Dongying,CN,37.46,118.49,88.18,57,0,6.53,clear sky,2020-07-31 01:13:48
184,Meulaboh,ID,4.14,96.13,77.27,83,100,3.56,light rain,2020-07-31 01:13:48
185,Lavrentiya,RU,65.58,-171.0,46.22,80,100,9.89,overcast clouds,2020-07-31 01:13:48
186,Sisimiut,GL,66.94,-53.67,46.45,77,94,6.38,overcast clouds,2020-07-31 01:13:48
187,Ola,RU,59.58,151.28,58.03,64,100,0.63,overcast clouds,2020-07-31 01:13:48
188,Horta,PT,38.53,-28.63,69.98,73,29,11.45,scattered clouds,2020-07-31 01:13:48
189,Hokitika,NZ,-42.72,170.97,56.53,65,100,5.12,overcast clouds,2020-07-31 01:09:25
190,Udachnyy,RU,66.42,112.4,62.6,51,0,4.47,clear sky,2020-07-31 01:13:48
191,Karratha,AU,-20.74,116.85,73.81,26,0,8.08,clear sky,2020-07-31 01:13:49
192,Oranjemund,NA,-28.55,16.43,60.93,39,0,5.91,clear sky,2020-07-31 01:13:49
193,Nome,US,64.5,-165.41,55.4,76,75,10.29,broken clouds,2020-07-31 01:13:49
194,Bandarbeyla,SO,9.49,50.81,78.98,72,0,26.78,clear sky,2020-07-31 01:13:49
195,Zhigalovo,RU,54.81,105.16,67.21,73,100,2.21,overcast clouds,2020-07-31 01:13:49
196,Shepsi,RU,44.04,39.15,74.17,78,1,3.44,clear sky,2020-07-31 01:13:49
197,Redmond,US,47.67,-122.12,89.01,47,0,1.01,clear sky,2020-07-31 01:13:31
198,Genhe,CN,50.78,121.52,65.64,88,99,2.08,moderate rain,2020-07-31 01:13:49
199,Progreso,MX,21.28,-89.67,86.0,70,40,17.43,scattered clouds,2020-07-31 01:13:49
200,Praia,CV,14.92,-23.51,78.8,74,75,11.41,broken clouds,2020-07-31 01:13:49
201,Codrington,AU,-38.27,141.97,52.12,74,84,10.51,broken clouds,2020-07-31 01:13:49
202,Cherskiy,RU,68.75,161.3,49.19,66,90,8.63,overcast clouds,2020-07-31 01:13:50
203,Kuytun,RU,54.34,101.5,65.53,74,29,5.5,scattered clouds,2020-07-31 01:13:50
204,Gravdal,NO,68.12,13.5,59.2,72,100,5.17,overcast clouds,2020-07-31 01:13:50
205,Mancio Lima,BR,-7.61,-72.9,75.88,70,32,2.37,scattered clouds,2020-07-31 01:13:50
206,Musoma,TZ,-1.5,33.8,71.01,61,21,6.67,few clouds,2020-07-31 01:13:50
207,Cabo San Lucas,MX,22.89,-109.91,87.01,54,5,13.87,clear sky,2020-07-31 01:13:13
208,Sidney,AU,-33.87,151.21,59.0,62,20,11.41,light rain,2020-07-31 01:12:40
209,Candelaria,PH,13.93,121.42,77.18,91,100,0.36,light rain,2020-07-31 01:13:50
210,Cayenne,GF,4.93,-52.33,77.0,100,48,5.3,light rain,2020-07-31 01:13:50
211,East London,ZA,-33.02,27.91,58.5,75,0,5.39,clear sky,2020-07-31 01:13:50
212,Arbroath,GB,56.56,-2.59,55.99,100,75,2.24,mist,2020-07-31 01:13:51
213,Victoria,HK,22.29,114.16,82.0,83,97,18.01,moderate rain,2020-07-31 01:13:22
214,Uvira,CD,-3.41,29.15,73.85,54,1,1.88,clear sky,2020-07-31 01:13:51
215,Batagay,RU,67.63,134.63,59.32,48,0,4.94,clear sky,2020-07-31 01:13:51
216,San Cristobal,VE,7.77,-72.22,67.32,92,99,5.06,light rain,2020-07-31 01:13:51
217,Prestice,CZ,49.57,13.33,57.2,67,0,0.36,clear sky,2020-07-31 01:13:51
218,Sao Filipe,CV,14.9,-24.5,75.83,81,22,8.39,few clouds,2020-07-31 01:13:51
219,Kangaatsiaq,GL,68.31,-53.46,44.76,82,100,6.42,overcast clouds,2020-07-31 01:13:51
220,Kamenka,RU,51.32,42.77,66.0,92,80,1.01,light rain,2020-07-31 01:13:51
221,Salamiyah,SY,35.01,37.05,74.08,52,0,9.44,clear sky,2020-07-31 01:13:51
222,Baghdad,IQ,33.34,44.4,89.6,25,0,6.93,clear sky,2020-07-31 01:13:51
223,Melfi,IT,41.0,15.65,80.6,61,5,1.12,clear sky,2020-07-31 01:13:52
224,Sfantu Gheorghe,RO,45.87,25.78,64.99,83,0,0.83,clear sky,2020-07-31 01:13:52
225,Camacupa,AO,-12.02,17.48,50.49,49,0,4.7,clear sky,2020-07-31 01:11:54
226,Menongue,AO,-14.66,17.69,50.67,54,0,5.19,clear sky,2020-07-31 01:13:52
227,Voh,NC,-20.97,164.7,77.81,74,68,3.69,light rain,2020-07-31 01:13:52
228,Deputatskiy,RU,69.3,139.9,53.92,53,0,3.49,clear sky,2020-07-31 01:13:52
229,Orange,US,33.7,-117.77,87.01,47,1,5.82,clear sky,2020-07-31 01:13:52
230,Uglovka,RU,58.24,33.51,52.95,95,84,8.19,broken clouds,2020-07-31 01:13:52
231,Morong,PH,14.51,121.24,82.99,83,100,5.82,light rain,2020-07-31 01:13:52
232,Chokurdakh,RU,70.63,147.92,48.13,75,100,10.65,overcast clouds,2020-07-31 01:13:52
233,Kasongo-Lunda,CD,-6.47,16.82,66.79,31,0,0.45,clear sky,2020-07-31 01:13:52
234,Pucallpa,PE,-8.38,-74.55,71.6,83,40,6.93,scattered clouds,2020-07-31 01:13:53
235,Shubarshi,KZ,48.59,57.19,71.11,34,0,6.33,clear sky,2020-07-31 01:13:53
236,Maneadero,MX,31.72,-116.57,69.01,85,6,1.99,clear sky,2020-07-31 01:13:53
237,Fairhope,US,30.52,-87.9,86.0,83,40,3.36,scattered clouds,2020-07-31 01:13:53
238,Coquimbo,CL,-29.95,-71.34,51.8,87,0,10.29,clear sky,2020-07-31 01:13:53
239,Erenhot,CN,43.65,111.98,78.19,49,0,8.41,clear sky,2020-07-31 01:13:53
240,Nishihara,JP,26.18,127.76,89.6,74,40,13.87,scattered clouds,2020-07-31 01:13:53
241,Ostrovnoy,RU,68.05,39.51,50.94,86,100,14.14,overcast clouds,2020-07-31 01:13:53
242,Katsuura,JP,35.13,140.3,79.0,88,75,4.7,broken clouds,2020-07-31 01:13:53
243,Uruacu,BR,-14.52,-49.14,71.17,36,0,5.12,clear sky,2020-07-31 01:11:12
244,Kargasok,RU,59.06,80.86,55.4,89,67,5.84,broken clouds,2020-07-31 01:13:54
245,Hami,CN,42.8,93.45,73.87,30,0,14.65,clear sky,2020-07-31 01:13:54
246,Cochrane,CA,51.18,-114.47,77.0,65,75,12.75,broken clouds,2020-07-31 01:13:54
247,Muros,ES,42.78,-9.06,63.0,93,90,4.7,fog,2020-07-31 01:13:54
248,Amapa,BR,1.0,-52.0,73.0,92,98,1.54,overcast clouds,2020-07-31 01:13:54
249,Sao Benedito Do Rio Preto,BR,-3.33,-43.53,76.71,70,7,3.38,clear sky,2020-07-31 01:13:54
250,Tawau,MY,4.25,117.89,78.8,100,20,2.24,few clouds,2020-07-31 01:13:54
251,Berea,US,41.37,-81.85,75.99,56,90,8.05,overcast clouds,2020-07-31 01:09:44
252,Medea,DZ,36.26,2.75,75.2,94,20,5.12,few clouds,2020-07-31 01:13:54
253,Isangel,VU,-19.55,169.27,80.6,69,86,6.93,overcast clouds,2020-07-31 01:13:54
254,Scarborough,GB,54.28,-0.4,62.01,84,100,10.02,overcast clouds,2020-07-31 01:12:41
255,Iona,US,26.52,-81.96,84.0,74,75,8.05,broken clouds,2020-07-31 01:13:55
256,Qazvin,IR,36.28,50.0,66.2,63,46,2.24,scattered clouds,2020-07-31 01:13:55
257,Perth,AU,-31.93,115.83,57.99,87,20,6.93,few clouds,2020-07-31 01:13:21
258,Wattegama,LK,6.8,81.48,77.0,100,40,8.05,scattered clouds,2020-07-31 01:13:55
259,Viedma,AR,-40.81,-63.0,46.99,65,58,7.0,broken clouds,2020-07-31 01:13:55
260,Bafra,TR,41.57,35.91,71.6,83,75,3.36,broken clouds,2020-07-31 01:13:55
261,Vuktyl,RU,63.86,57.31,55.99,67,100,11.97,overcast clouds,2020-07-31 01:13:55
262,Siyabuswa,ZA,-25.11,29.04,48.06,51,0,3.33,clear sky,2020-07-31 01:13:55
263,Natal,BR,-5.79,-35.21,75.2,83,40,12.75,scattered clouds,2020-07-31 01:11:43
264,Gat,IL,31.61,34.76,77.0,58,0,1.23,clear sky,2020-07-31 01:13:55
265,Gudari,IN,19.35,83.78,79.38,88,97,0.31,overcast clouds,2020-07-31 01:13:55
266,Nacala,MZ,-14.54,40.67,60.8,82,0,8.05,clear sky,2020-07-31 01:13:56
267,Boguchany,RU,58.38,97.45,66.18,69,10,1.74,clear sky,2020-07-31 01:13:56
268,Kuzovatovo,RU,53.55,47.69,62.15,96,100,6.4,overcast clouds,2020-07-31 01:13:56
269,Airai,TL,-8.93,125.41,66.65,45,96,4.74,overcast clouds,2020-07-31 01:13:56
270,Fort Smith,US,35.39,-94.4,87.8,66,20,4.7,few clouds,2020-07-31 01:10:15
271,Kathu,TH,7.92,98.33,84.99,83,75,11.41,light rain,2020-07-31 01:13:56
272,Namibe,AO,-15.2,12.15,63.32,85,0,2.55,clear sky,2020-07-31 01:13:56
273,Kieta,PG,-6.22,155.63,85.64,66,100,2.46,light rain,2020-07-31 01:13:56
274,Sorland,NO,67.67,12.69,59.05,76,0,4.88,clear sky,2020-07-31 01:13:56
275,Tsiroanomandidy,MG,-18.77,46.03,63.5,90,92,3.69,overcast clouds,2020-07-31 01:13:56
276,Fredericksburg,US,38.3,-77.46,75.2,100,1,2.51,heavy intensity rain,2020-07-31 01:12:32
277,Batagay-Alyta,RU,67.8,130.41,56.21,55,0,3.74,clear sky,2020-07-31 01:13:57
278,Sambava,MG,-14.27,50.17,67.75,87,6,6.67,clear sky,2020-07-31 01:13:57
279,Kushima,JP,31.46,131.23,87.8,70,20,5.82,few clouds,2020-07-31 01:13:57
280,Clinton,US,42.59,-82.92,73.99,69,75,10.29,broken clouds,2020-07-31 01:09:35
281,Opuwo,NA,-18.06,13.84,55.92,37,0,10.36,clear sky,2020-07-31 01:13:57
282,Adre,TD,13.47,22.2,73.74,78,100,8.77,overcast clouds,2020-07-31 01:13:57
283,Manta,EC,-0.95,-80.73,71.6,83,20,8.05,few clouds,2020-07-31 01:13:57
284,Ca Mau,VN,9.18,105.15,81.45,82,100,8.61,light rain,2020-07-31 01:13:57
285,Labrea,BR,-7.26,-64.8,75.61,56,29,2.33,scattered clouds,2020-07-31 01:13:57
286,Gulu,UG,2.77,32.3,64.94,91,100,1.63,overcast clouds,2020-07-31 01:13:57
287,Kavaratti,IN,10.57,72.64,82.29,78,100,19.37,moderate rain,2020-07-31 01:13:57
288,Beringovskiy,RU,63.05,179.32,50.47,83,86,12.66,overcast clouds,2020-07-31 01:13:58
289,San Fernando,PH,15.03,120.69,82.4,88,75,3.36,broken clouds,2020-07-31 01:13:58
290,Nizhniy Kuranakh,RU,58.84,125.49,60.04,81,100,9.73,light rain,2020-07-31 01:13:58
291,Sobolevo,RU,54.43,31.9,50.43,93,0,7.4,clear sky,2020-07-31 01:13:58
292,Aktau,KZ,43.65,51.2,66.2,93,0,4.47,clear sky,2020-07-31 01:12:54
293,Alice Springs,AU,-23.7,133.88,59.0,24,0,14.99,clear sky,2020-07-31 01:13:58
294,Mazagao,BR,-0.12,-51.29,78.8,94,20,3.36,few clouds,2020-07-31 01:13:58
295,Oshikango,NA,-17.4,15.88,57.2,39,0,4.7,clear sky,2020-07-31 01:13:58
296,Dzhebariki-Khaya,RU,62.22,135.8,73.02,33,0,1.3,clear sky,2020-07-31 01:13:58
297,Crawley,GB,51.11,-0.18,63.0,72,0,4.7,clear sky,2020-07-31 01:13:58
298,Coos Bay,US,43.37,-124.22,78.01,87,75,11.41,mist,2020-07-31 01:13:59
299,San Rafael Del Sur,NI,11.85,-86.44,89.6,55,40,9.17,smoke,2020-07-31 01:13:59
300,Mahebourg,MU,-20.41,57.7,69.8,88,75,4.7,broken clouds,2020-07-31 01:13:59
301,Sanming,CN,26.25,117.62,85.46,66,99,3.56,overcast clouds,2020-07-31 01:13:53
302,Port Hedland,AU,-20.32,118.57,69.8,21,0,4.7,clear sky,2020-07-31 01:11:38
303,Mehamn,NO,71.04,27.85,50.92,90,88,7.54,overcast clouds,2020-07-31 01:13:59
304,Longyearbyen,SJ,78.22,15.64,46.4,87,75,1.12,broken clouds,2020-07-31 01:13:59
305,Nahrin,AF,36.06,69.13,70.68,27,0,1.86,clear sky,2020-07-31 01:13:59
306,Balaghat,IN,21.8,80.18,80.71,75,82,2.13,broken clouds,2020-07-31 01:13:59
307,Mosquera,CO,4.71,-74.23,57.2,71,20,12.75,few clouds,2020-07-31 01:12:58
308,Filadelfia,US,39.95,-75.16,87.01,62,90,5.82,overcast clouds,2020-07-31 01:09:24
309,Bar Harbor,US,44.39,-68.2,71.6,78,20,3.36,few clouds,2020-07-31 01:14:00
310,Dunedin,NZ,-45.87,170.5,54.0,63,98,5.01,overcast clouds,2020-07-31 01:14:00
311,Necochea,AR,-38.55,-58.74,44.01,83,42,15.01,scattered clouds,2020-07-31 01:14:00
312,Sochi,RU,43.6,39.73,69.8,88,20,4.05,few clouds,2020-07-31 01:14:00
313,Novopokrovka,UA,49.84,36.55,66.2,88,54,4.47,broken clouds,2020-07-31 01:14:00
314,Havelock,US,34.88,-76.9,82.99,83,90,10.29,overcast clouds,2020-07-31 01:11:41
315,Aksu,CN,41.12,80.26,78.33,23,12,4.7,few clouds,2020-07-31 01:14:00
316,Venado Tuerto,AR,-33.75,-61.97,39.99,60,99,4.0,overcast clouds,2020-07-31 01:14:00
317,Bayeux,BR,-7.12,-34.93,69.8,100,90,10.29,light rain,2020-07-31 01:09:06
318,Zaragoza,ES,41.66,-0.88,81.0,69,0,1.12,clear sky,2020-07-31 01:09:44
319,Saint-Louis,SN,16.33,-15.0,78.8,94,75,9.1,thunderstorm with rain,2020-07-31 01:14:01
320,Atasu,KZ,48.68,71.64,66.88,54,100,2.28,overcast clouds,2020-07-31 01:14:01
321,Port Hawkesbury,CA,45.62,-61.35,71.6,73,75,5.82,broken clouds,2020-07-31 01:14:01
322,Saint-Georges,GD,12.06,-61.75,80.6,88,20,8.05,few clouds,2020-07-31 01:14:01
323,Narsaq,GL,60.92,-46.05,46.4,81,100,4.7,overcast clouds,2020-07-31 01:14:01
324,Changping,CN,40.22,116.22,91.0,61,5,10.0,clear sky,2020-07-31 01:14:01
325,Markala,ML,13.7,-6.07,83.21,60,0,6.87,clear sky,2020-07-31 01:14:01
326,Jalu,LY,29.03,21.55,79.03,44,0,10.16,clear sky,2020-07-31 01:14:02
327,Diapaga,BF,12.07,1.79,78.67,76,1,7.67,clear sky,2020-07-31 01:14:02
328,Druzhba,UA,52.04,33.95,56.98,84,19,5.17,few clouds,2020-07-31 01:14:02
329,Puerto Del Rosario,ES,28.5,-13.86,73.4,78,75,16.11,broken clouds,2020-07-31 01:14:02
330,Chalmette,US,29.94,-89.96,88.0,74,20,11.41,few clouds,2020-07-31 01:14:02
331,Tabatinga,BR,-4.25,-69.94,77.0,100,20,2.24,few clouds,2020-07-31 01:14:02
332,Buenos Aires,AR,-34.61,-58.38,53.6,66,0,14.99,clear sky,2020-07-31 01:13:31
333,Outlook,CA,51.5,-107.05,82.99,56,26,4.0,scattered clouds,2020-07-31 01:14:02
334,Dingle,PH,11.0,122.67,83.98,76,90,8.79,light rain,2020-07-31 01:14:02
335,Imeni Poliny Osipenko,RU,52.42,136.49,63.59,86,99,11.14,overcast clouds,2020-07-31 01:14:03
336,Inta,RU,66.03,60.17,55.11,70,88,10.71,overcast clouds,2020-07-31 01:14:03
337,Surt,LY,31.21,16.59,76.69,79,0,5.68,clear sky,2020-07-31 01:14:03
338,Bella Union,UY,-30.28,-57.6,46.8,93,0,7.78,clear sky,2020-07-31 01:14:03
339,Pimentel,PE,-6.84,-79.93,60.33,89,12,11.72,few clouds,2020-07-31 01:14:03
340,Rundu,NA,-17.93,19.77,50.54,47,0,6.4,clear sky,2020-07-31 01:14:03
341,Sergeyevka,KZ,53.88,67.42,61.9,92,71,7.11,broken clouds,2020-07-31 01:14:03
342,Leavenworth,US,39.23,-95.03,72.0,95,100,1.99,heavy intensity rain,2020-07-31 01:14:03
343,Trairi,BR,-3.28,-39.27,78.15,76,7,13.87,clear sky,2020-07-31 01:14:03
344,Zalantun,CN,48.0,122.72,77.74,64,2,5.99,clear sky,2020-07-31 01:14:03
345,College,US,64.86,-147.8,78.8,39,75,5.82,broken clouds,2020-07-31 01:14:04
346,Port Hardy,CA,50.7,-127.42,71.6,60,5,10.29,clear sky,2020-07-31 01:14:04
347,Bathsheba,BB,13.22,-59.52,82.4,78,20,10.29,few clouds,2020-07-31 01:14:04
348,Smidovich,RU,48.6,133.82,77.2,78,27,5.53,scattered clouds,2020-07-31 01:14:04
349,Kudahuvadhoo,MV,2.67,72.89,82.89,76,100,13.89,light rain,2020-07-31 01:14:04
350,Hovd,MN,48.01,91.64,59.2,42,1,2.68,clear sky,2020-07-31 01:14:04
351,Kompaniyivka,UA,48.25,32.21,71.6,60,100,5.28,overcast clouds,2020-07-31 01:14:04
352,Tandil,AR,-37.32,-59.13,43.0,70,96,3.0,overcast clouds,2020-07-31 01:14:04
353,Bubaque,GW,11.28,-15.83,80.1,82,98,15.12,light rain,2020-07-31 01:14:04
354,Dabat,ET,12.98,37.77,53.08,100,100,1.74,light rain,2020-07-31 01:14:05
355,Gari,RU,59.43,62.35,52.77,97,100,9.4,light rain,2020-07-31 01:14:05
356,Havoysund,NO,71.0,24.66,57.2,62,16,8.05,few clouds,2020-07-31 01:14:05
357,Caxito,AO,-8.58,13.66,69.8,88,75,3.36,broken clouds,2020-07-31 01:14:05
358,Chagoda,RU,59.16,35.33,52.23,98,86,6.78,overcast clouds,2020-07-31 01:14:05
359,Morant Bay,JM,17.88,-76.41,89.6,66,40,8.05,scattered clouds,2020-07-31 01:14:05
360,Rajula,IN,21.05,71.43,81.32,84,100,5.23,light rain,2020-07-31 01:14:05
361,Mwinilunga,ZM,-11.74,24.43,52.36,60,0,5.06,clear sky,2020-07-31 01:14:05
362,Grindavik,IS,63.84,-22.43,50.0,93,75,9.17,broken clouds,2020-07-31 01:14:05
363,Katherine,AU,-14.47,132.27,73.4,31,0,13.87,clear sky,2020-07-31 01:14:05
364,Dalvik,IS,65.97,-18.53,48.2,93,90,2.24,overcast clouds,2020-07-31 01:14:05
365,Chernyshevskiy,RU,63.01,112.47,63.41,59,78,9.37,broken clouds,2020-07-31 01:14:05
366,Kladovo,RS,44.61,22.61,73.0,66,0,4.07,clear sky,2020-07-31 01:14:06
367,Valparaiso,CL,-33.04,-71.63,53.01,87,100,4.7,overcast clouds,2020-07-31 01:11:45
368,Gavle,SE,60.67,17.14,57.99,96,45,8.01,scattered clouds,2020-07-31 01:14:06
369,San Patricio,MX,19.22,-104.7,86.0,74,75,3.98,broken clouds,2020-07-31 01:14:06
370,Adrar,MR,20.5,-10.07,90.72,39,67,6.91,light rain,2020-07-31 01:14:06
371,Faanui,PF,-16.48,-151.75,78.98,79,8,10.36,light rain,2020-07-31 01:14:06
372,Faya,SA,18.39,42.45,66.2,88,20,4.7,few clouds,2020-07-31 01:14:06
373,Souillac,MU,-20.52,57.52,71.6,83,75,3.36,broken clouds,2020-07-31 01:14:06
374,Trinidad,BO,-14.83,-64.9,65.19,38,0,2.91,clear sky,2020-07-31 01:14:06
375,Ukiah,US,39.15,-123.21,96.8,16,1,5.82,clear sky,2020-07-31 01:14:07
376,Padang,ID,-0.95,100.35,75.2,88,40,5.82,scattered clouds,2020-07-31 01:14:07
377,Banda Aceh,ID,5.56,95.32,81.01,73,100,14.12,overcast clouds,2020-07-31 01:14:07
378,Geraldton,AU,-28.77,114.6,51.8,93,93,5.82,overcast clouds,2020-07-31 01:12:50
379,San Jeronimo,PE,-11.95,-75.28,52.3,64,100,4.09,overcast clouds,2020-07-31 01:14:07
380,Tres Picos,MX,15.87,-93.53,81.84,74,64,0.27,moderate rain,2020-07-31 01:14:07
381,Kahului,US,20.89,-156.47,89.6,43,40,20.8,scattered clouds,2020-07-31 01:14:07
382,Tessalit,ML,20.2,1.01,94.26,11,0,8.95,clear sky,2020-07-31 01:14:07
383,Bull Savanna,JM,17.89,-77.59,80.47,77,7,7.99,clear sky,2020-07-31 01:14:07
384,Sabha,LY,27.04,14.43,83.95,24,0,14.47,clear sky,2020-07-31 01:14:07
385,Pietersburg,ZA,-23.9,29.47,44.6,56,0,4.94,clear sky,2020-07-31 01:14:08
386,Palu,ID,-0.89,119.87,82.78,69,95,0.85,light rain,2020-07-31 01:14:08
387,Gayeri,BF,12.65,0.49,82.4,65,100,12.88,overcast clouds,2020-07-31 01:14:08
388,Mount Darwin,ZW,-16.77,31.58,52.99,67,0,4.16,clear sky,2020-07-31 01:14:08
389,Kondoa,TZ,-4.9,35.78,56.53,92,0,3.27,clear sky,2020-07-31 01:14:08
390,Saint-Pierre,RE,-21.34,55.48,68.0,77,20,8.05,few clouds,2020-07-31 01:14:08
391,Novobureyskiy,RU,49.8,129.88,76.3,76,100,6.64,overcast clouds,2020-07-31 01:14:08
392,Srednekolymsk,RU,67.45,153.68,60.44,45,79,11.68,broken clouds,2020-07-31 01:14:08
393,Kushiro,JP,42.98,144.37,69.8,83,20,10.29,fog,2020-07-31 01:14:08
394,Kalanguy,RU,51.02,116.52,68.65,78,100,2.53,moderate rain,2020-07-31 01:14:09
395,Tommot,RU,58.96,126.29,59.9,79,100,9.82,light rain,2020-07-31 01:14:09
396,Novovasylivka,UA,46.83,35.75,72.88,68,87,4.9,overcast clouds,2020-07-31 01:14:09
397,West Bay,KY,19.37,-81.42,86.0,79,20,11.41,few clouds,2020-07-31 01:14:09
398,Borogontsy,RU,62.67,131.17,71.15,34,0,5.73,clear sky,2020-07-31 01:14:09
399,Fort Nelson,CA,58.81,-122.7,78.8,39,5,5.82,clear sky,2020-07-31 01:14:09
400,Bairnsdale,AU,-37.83,147.62,54.0,74,0,1.79,clear sky,2020-07-31 01:14:09
401,Laguna De Perlas,NI,12.34,-83.67,80.94,86,92,8.43,overcast clouds,2020-07-31 01:14:09
402,Tiksi,RU,71.69,128.87,42.53,87,100,5.7,overcast clouds,2020-07-31 01:14:09
403,Azul,AR,-36.78,-59.86,44.01,62,100,7.92,overcast clouds,2020-07-31 01:14:09
404,Itiuba,BR,-10.69,-39.85,65.26,75,0,8.14,clear sky,2020-07-31 01:14:09
405,Paita,PE,-5.09,-81.11,62.08,82,14,9.86,few clouds,2020-07-31 01:14:10
406,Amuntai,ID,-2.42,115.25,82.36,69,75,1.05,broken clouds,2020-07-31 01:14:10
407,Henties Bay,NA,-22.12,14.28,70.56,27,0,11.88,clear sky,2020-07-31 01:14:10
408,Kandrian,PG,-6.22,149.55,81.3,78,60,16.58,light rain,2020-07-31 01:14:10
409,Kybartai,LT,54.64,22.76,53.92,92,12,12.12,few clouds,2020-07-31 01:14:10
410,Sydney,AU,-33.87,151.21,59.0,62,20,11.41,light rain,2020-07-31 01:11:35
411,Los Llanos De Aridane,ES,28.66,-17.92,73.4,64,90,11.41,overcast clouds,2020-07-31 01:14:10
412,Mercedes,AR,-34.65,-59.43,48.99,65,0,3.0,clear sky,2020-07-31 01:14:10
413,Solnechnyy,RU,50.72,136.63,66.33,94,100,5.1,light rain,2020-07-31 01:14:10
414,Itarema,BR,-2.92,-39.92,78.3,76,4,14.0,clear sky,2020-07-31 01:14:10
415,Sibolga,ID,1.74,98.78,78.91,74,100,2.46,overcast clouds,2020-07-31 01:14:11
416,Strai,NO,58.2,7.9,59.0,72,72,2.24,broken clouds,2020-07-31 01:14:11
417,Tuy Hoa,VN,13.08,109.3,79.65,83,100,13.69,light rain,2020-07-31 01:14:11
418,Novikovo,RU,51.15,37.89,60.69,86,100,2.53,overcast clouds,2020-07-31 01:14:11
419,Fairbanks,US,64.84,-147.72,78.8,36,20,8.05,few clouds,2020-07-31 01:14:11
420,Abu Samrah,SY,35.3,37.18,75.22,51,0,7.07,clear sky,2020-07-31 01:14:11
421,Christchurch,NZ,-43.53,172.63,55.99,62,100,10.29,overcast clouds,2020-07-31 01:10:07
422,Andenes,NO,69.31,16.12,55.4,82,0,2.24,clear sky,2020-07-31 01:14:11
423,Leshukonskoye,RU,64.9,45.76,51.91,64,93,8.14,overcast clouds,2020-07-31 01:14:11
424,Port Lincoln,AU,-34.73,135.87,58.68,59,62,13.29,broken clouds,2020-07-31 01:14:11
425,Zhanaozen,KZ,43.3,52.8,68.05,58,0,8.52,clear sky,2020-07-31 01:14:11
426,Port-Gentil,GA,-0.72,8.78,74.48,81,98,12.93,overcast clouds,2020-07-31 01:14:12
427,Waddan,LY,29.16,16.14,75.81,45,0,9.62,clear sky,2020-07-31 01:14:12
428,Nalut,LY,30.33,10.85,76.71,32,0,10.98,clear sky,2020-07-31 01:14:12
429,Mombetsu,JP,44.35,143.35,73.4,78,40,5.82,scattered clouds,2020-07-31 01:14:12
430,Nizwa,OM,22.93,57.53,89.06,45,69,1.34,broken clouds,2020-07-31 01:14:12
431,Vallenar,CL,-28.57,-70.76,64.76,29,0,1.45,clear sky,2020-07-31 01:14:12
432,Cam Ranh,VN,11.92,109.16,86.0,79,75,1.12,broken clouds,2020-07-31 01:14:12
433,Chifeng,CN,42.27,118.96,81.68,50,100,9.66,overcast clouds,2020-07-31 01:14:12
434,Leningradskiy,RU,69.38,178.42,41.76,80,100,15.9,overcast clouds,2020-07-31 01:14:12
435,Akureyri,IS,65.68,-18.09,48.2,93,90,2.24,overcast clouds,2020-07-31 01:14:12
436,Esperance,AU,-33.87,121.9,50.0,100,1,5.82,clear sky,2020-07-31 01:14:12
437,Broome,US,42.25,-75.83,72.0,73,90,2.77,overcast clouds,2020-07-31 01:14:13
438,Severo-Kurilsk,RU,50.68,156.12,56.25,89,98,9.15,overcast clouds,2020-07-31 01:14:13
439,Juneau,US,58.3,-134.42,77.0,41,40,9.17,scattered clouds,2020-07-31 01:09:21
440,Sao Geraldo Do Araguaia,BR,-6.4,-48.55,79.21,42,82,2.89,broken clouds,2020-07-31 01:14:13
441,Huarmey,PE,-10.07,-78.15,61.21,82,39,5.66,scattered clouds,2020-07-31 01:14:13
442,Tahoua,NE,14.89,5.27,77.0,83,100,11.41,moderate rain,2020-07-31 01:14:13
443,Dire,ML,12.28,-10.97,72.28,95,100,1.32,overcast clouds,2020-07-31 01:14:13
444,Hervey Bay,AU,-25.3,152.85,68.0,65,0,11.01,clear sky,2020-07-31 01:14:13
445,Tervel,BG,43.75,27.4,68.0,66,0,1.01,clear sky,2020-07-31 01:14:13
446,Coahuayana,MX,18.73,-103.68,77.0,83,75,6.93,broken clouds,2020-07-31 01:14:13
447,San Quintin,MX,30.48,-115.95,72.19,72,0,10.63,clear sky,2020-07-31 01:14:14
448,Mogadishu,SO,2.04,45.34,77.65,84,23,16.17,light rain,2020-07-31 01:14:14
449,Mayo,US,38.89,-76.51,84.2,88,75,6.93,light rain,2020-07-31 01:14:14
450,Sabang,ID,5.89,95.32,83.28,74,100,21.27,overcast clouds,2020-07-31 01:14:14
451,Puerto Baquerizo Moreno,EC,-0.9,-89.6,66.15,91,91,11.27,overcast clouds,2020-07-31 01:14:14
452,Palauig,PH,15.44,119.9,80.11,82,100,12.66,moderate rain,2020-07-31 01:14:14
453,Olinda,BR,-8.01,-34.86,71.6,88,75,4.7,broken clouds,2020-07-31 01:14:14
454,Portland,US,45.52,-122.68,96.01,24,20,9.17,few clouds,2020-07-31 01:11:54
455,Touros,BR,-5.2,-35.46,73.4,88,40,6.93,scattered clouds,2020-07-31 01:14:14
456,Elliot Lake,CA,46.38,-82.63,71.6,68,90,5.82,overcast clouds,2020-07-31 01:14:15
457,Yacuiba,BO,-22.04,-63.68,48.99,50,17,2.24,few clouds,2020-07-31 01:09:33
458,Yerbogachen,RU,61.28,108.01,61.25,67,81,9.98,broken clouds,2020-07-31 01:14:15
459,Dawson Creek,CA,55.77,-120.24,75.2,38,1,6.93,clear sky,2020-07-31 01:14:15
460,Zhezkazgan,KZ,47.8,67.71,64.4,45,100,6.71,overcast clouds,2020-07-31 01:14:15
461,Mexico,PH,15.06,120.72,82.4,88,75,3.36,broken clouds,2020-07-31 01:14:15
462,Alihe,CN,50.57,123.72,74.77,64,32,5.55,scattered clouds,2020-07-31 01:14:15
463,Edeleny,HU,48.3,20.73,68.0,60,10,5.82,clear sky,2020-07-31 01:14:15
464,Brentwood,US,40.78,-73.25,82.0,83,90,6.93,overcast clouds,2020-07-31 01:14:15
465,Mannargudi,IN,10.67,79.43,80.82,74,97,4.23,overcast clouds,2020-07-31 01:14:15
466,Kaputa,ZM,-8.47,29.66,68.67,62,35,1.01,scattered clouds,2020-07-31 01:14:16
467,Cidreira,BR,-30.18,-50.21,56.75,78,1,15.93,clear sky,2020-07-31 01:14:16
468,Bodden Town,KY,19.28,-81.25,86.0,79,20,11.41,few clouds,2020-07-31 01:14:16
469,Brejo,BR,-3.68,-42.75,77.14,64,2,5.82,clear sky,2020-07-31 01:14:17
470,Coolum Beach,AU,-26.53,153.1,68.0,62,79,8.99,broken clouds,2020-07-31 01:14:17
471,Shakhtinsk,KZ,49.71,72.59,53.6,87,34,2.24,scattered clouds,2020-07-31 01:14:17
472,Porto Murtinho,BR,-21.7,-57.88,57.7,51,0,4.03,clear sky,2020-07-31 01:14:17
473,Rocha,UY,-34.48,-54.33,40.33,93,0,8.16,clear sky,2020-07-31 01:14:17
474,Ishigaki,JP,24.34,124.16,87.8,84,75,11.41,broken clouds,2020-07-31 01:13:44
475,Kribi,CM,2.95,9.92,75.27,90,100,8.01,moderate rain,2020-07-31 01:14:17
476,San Nicolas,PH,18.17,120.6,82.4,94,90,3.36,overcast clouds,2020-07-31 01:14:17
477,Shahpur,IN,16.7,76.83,75.9,87,96,9.19,overcast clouds,2020-07-31 01:14:17
478,Bonavista,CA,48.65,-53.11,55.99,74,100,1.01,overcast clouds,2020-07-31 01:14:18
479,Hohhot,CN,40.81,111.65,69.8,77,0,4.47,clear sky,2020-07-31 01:14:18
480,Zonguldak,TR,41.25,31.83,59.88,90,0,2.53,clear sky,2020-07-31 01:14:18
481,Flinders,AU,-34.58,150.86,55.99,50,20,5.82,few clouds,2020-07-31 01:14:18
482,Maragogi,BR,-9.01,-35.22,72.68,87,24,9.82,light rain,2020-07-31 01:14:18
483,Sao Felix Do Xingu,BR,-6.64,-51.99,75.24,47,60,1.52,broken clouds,2020-07-31 01:14:19
484,Ponta Do Sol,PT,32.67,-17.1,68.0,68,20,8.05,few clouds,2020-07-31 01:14:19
485,Vigrestad,NO,58.57,5.7,55.0,99,98,3.0,overcast clouds,2020-07-31 01:14:19
486,Lata,PT,40.16,-8.33,64.0,91,48,1.99,scattered clouds,2020-07-31 01:14:19
487,Clyde River,CA,70.47,-68.59,37.4,100,90,13.87,light rain,2020-07-31 01:14:20
488,Owen Sound,CA,44.57,-80.94,68.0,91,0,5.08,clear sky,2020-07-31 01:14:20
489,Ginda,IN,30.69,78.49,65.95,86,61,1.01,light rain,2020-07-31 01:14:20
490,Immokalee,US,26.42,-81.42,86.0,70,20,4.7,few clouds,2020-07-31 01:14:20
491,Charagua,BO,-19.8,-63.22,53.13,47,0,1.79,clear sky,2020-07-31 01:14:21
492,Bosaso,SO,11.28,49.18,90.68,48,100,10.11,overcast clouds,2020-07-31 01:14:21
493,Safford,US,32.83,-109.71,111.2,7,1,16.11,clear sky,2020-07-31 01:13:54
494,Karpogory,RU,64.0,44.45,53.78,94,100,5.32,light rain,2020-07-31 01:14:21
495,Qui Nhon,VN,13.77,109.23,80.11,82,100,4.21,light rain,2020-07-31 01:10:51
496,Idrinskoye,RU,54.37,92.14,59.74,87,100,8.41,overcast clouds,2020-07-31 01:14:21
497,Darnah,LY,32.77,22.64,76.12,75,0,14.16,clear sky,2020-07-31 01:14:21
498,San Andres,CO,12.58,-81.7,84.2,83,40,8.05,scattered clouds,2020-07-31 01:10:10
499,Kedrovyy,RU,56.17,91.82,60.8,82,100,8.95,overcast clouds,2020-07-31 01:14:22
500,Karawang,ID,-6.3,107.31,77.0,57,20,3.36,few clouds,2020-07-31 01:14:22
501,Gondanglegi,ID,-7.75,112.01,77.23,74,0,15.01,clear sky,2020-07-31 01:14:22
502,Kenai,US,60.55,-151.26,68.0,52,40,8.05,scattered clouds,2020-07-31 01:14:22
503,Lahad Datu,MY,5.03,118.33,83.12,72,100,5.17,overcast clouds,2020-07-31 01:14:22
504,Kuminskiy,RU,58.67,66.57,54.43,96,100,3.89,overcast clouds,2020-07-31 01:14:23
505,Gimli,CA,50.63,-96.99,82.99,82,0,3.0,clear sky,2020-07-31 01:14:23
506,Pacific Grove,US,36.62,-121.92,68.0,68,20,11.41,few clouds,2020-07-31 01:12:35
507,Brownsville,US,25.9,-97.5,87.8,74,20,13.87,few clouds,2020-07-31 01:14:23
508,Fukue,JP,32.69,128.84,86.0,79,75,8.05,broken clouds,2020-07-31 01:14:23
509,Ibra,OM,22.69,58.53,88.32,52,69,2.8,broken clouds,2020-07-31 01:14:23
510,Gweta,BW,-20.18,25.23,53.33,40,0,7.94,clear sky,2020-07-31 01:14:23
511,Iquique,CL,-20.22,-70.14,59.0,72,20,11.41,few clouds,2020-07-31 01:11:00
512,Smiths Falls,CA,44.9,-76.02,66.0,87,0,2.84,clear sky,2020-07-31 01:14:24
513,Puerto Madryn,AR,-42.77,-65.04,46.62,53,100,17.02,overcast clouds,2020-07-31 01:14:24
514,Laguna,US,38.42,-121.42,95.0,14,1,11.41,clear sky,2020-07-31 01:14:24
515,Boisar,IN,19.8,72.75,81.25,84,100,5.03,light rain,2020-07-31 01:14:24
516,Ilulissat,GL,69.22,-51.1,46.4,70,48,2.24,scattered clouds,2020-07-31 01:14:24
517,Bardiyah,LY,31.76,25.09,75.24,68,0,9.01,clear sky,2020-07-31 01:14:25
518,Ciro Marina,IT,39.37,17.13,81.73,46,0,5.66,clear sky,2020-07-31 01:14:25
519,Lamu,KE,-2.27,40.9,75.85,88,4,13.27,clear sky,2020-07-31 01:14:25
520,Krishnanagar,IN,23.4,88.5,82.49,82,98,5.53,overcast clouds,2020-07-31 01:14:25
521,Norsup,VU,-16.07,167.38,82.4,78,75,3.36,broken clouds,2020-07-31 01:14:25
522,Aquin,HT,18.28,-73.4,82.45,78,100,6.91,overcast clouds,2020-07-31 01:14:25
523,Newport,GB,51.59,-3.0,64.99,80,0,4.32,clear sky,2020-07-31 01:10:40
524,Kitgum,UG,3.28,32.89,64.33,93,26,3.29,light rain,2020-07-31 01:14:25
525,San Policarpo,PH,12.18,125.51,82.58,74,100,4.05,light rain,2020-07-31 01:14:26
526,Tera,NE,14.01,0.75,91.22,39,100,7.83,light rain,2020-07-31 01:14:26
527,Half Moon Bay,US,37.46,-122.43,77.0,82,90,10.29,overcast clouds,2020-07-31 01:14:26
528,Spokane,US,47.62,-117.37,98.01,14,40,5.82,scattered clouds,2020-07-31 01:13:28
529,Merauke,ID,-8.47,140.33,79.57,70,68,15.3,broken clouds,2020-07-31 01:14:26
530,Pangnirtung,CA,66.15,-65.71,52.92,78,100,4.94,light rain,2020-07-31 01:14:27
531,Grand Gaube,MU,-20.01,57.66,68.0,84,6,1.99,clear sky,2020-07-31 01:14:27
532,Sinjar,IQ,36.32,41.88,83.93,14,0,5.99,clear sky,2020-07-31 01:14:27
533,Vestmannaeyjar,IS,63.44,-20.27,52.29,87,100,9.24,overcast clouds,2020-07-31 01:14:27
534,Comodoro Rivadavia,AR,-45.87,-67.5,41.0,80,100,5.82,overcast clouds,2020-07-31 01:14:27
535,Saint Pete Beach,US,27.73,-82.74,86.0,1,26,11.54,scattered clouds,2020-07-31 01:14:27
536,Kismayo,SO,-0.36,42.55,77.23,84,10,15.82,light rain,2020-07-31 01:14:28
537,Kikuyu,KE,-1.25,36.66,57.2,87,65,3.96,broken clouds,2020-07-31 01:14:28
538,Vila Franca Do Campo,PT,37.72,-25.43,68.0,82,40,6.93,scattered clouds,2020-07-31 01:14:28
539,Russell,US,32.35,-85.2,87.8,58,1,3.62,clear sky,2020-07-31 01:14:28
540,Joigny,FR,47.98,3.4,66.0,51,0,6.85,clear sky,2020-07-31 01:14:28
541,Maracas,BR,-13.44,-40.43,57.02,99,2,5.28,clear sky,2020-07-31 01:14:29
542,Minsk,BY,53.9,27.57,59.0,67,16,8.95,few clouds,2020-07-31 01:12:19
543,Blytheville,US,35.93,-89.92,87.8,66,1,12.75,light rain,2020-07-31 01:14:29
544,Luzhou,CN,28.87,105.44,74.75,89,100,2.57,overcast clouds,2020-07-31 01:14:29
545,Tsaratanana,MG,-16.78,47.65,68.38,67,0,4.27,clear sky,2020-07-31 01:14:29
546,Kununurra,AU,-15.77,128.73,75.2,23,0,14.99,clear sky,2020-07-31 01:10:05
547,Tabou,CI,4.42,-7.35,75.09,86,100,7.05,overcast clouds,2020-07-31 01:14:29
548,Kayerkan,RU,69.35,87.76,69.8,52,18,20.13,few clouds,2020-07-31 01:14:29
549,Ucluelet,CA,48.93,-125.55,73.4,49,5,10.29,clear sky,2020-07-31 01:14:29
550,Sept-Iles,CA,50.2,-66.38,62.01,100,75,9.17,broken clouds,2020-07-31 01:14:30
551,Krasnoufimsk,RU,56.61,57.77,62.26,95,80,8.08,broken clouds,2020-07-31 01:14:30
552,Oranjestad,AW,12.52,-70.03,86.0,74,20,13.87,few clouds,2020-07-31 01:14:30
553,Zuenoula,CI,7.43,-6.04,70.45,97,100,4.03,overcast clouds,2020-07-31 01:14:30
554,Verkh-Tula,RU,54.88,82.78,60.8,77,20,6.71,few clouds,2020-07-31 01:14:30
555,Mecca,SA,21.43,39.83,87.49,54,18,2.93,few clouds,2020-07-31 01:14:30
556,Alpena,US,45.06,-83.43,75.2,50,1,10.29,clear sky,2020-07-31 01:14:30
557,Ambilobe,MG,-13.2,49.05,71.24,76,91,3.02,overcast clouds,2020-07-31 01:14:30
558,Kruisfontein,ZA,-34.0,24.73,48.54,84,0,4.68,clear sky,2020-07-31 01:14:30
559,Aitape,PG,-3.14,142.35,85.57,68,99,1.41,light rain,2020-07-31 01:14:31
560,Timaru,NZ,-44.4,171.25,54.0,82,83,3.33,broken clouds,2020-07-31 01:14:31
561,Svetlyy,RU,54.67,20.13,59.0,82,75,13.42,broken clouds,2020-07-31 01:14:31
562,Mlowo,TZ,-9.0,32.98,53.89,92,0,5.03,clear sky,2020-07-31 01:14:31
563,Marsaxlokk,MT,35.84,14.54,81.0,65,0,4.7,clear sky,2020-07-31 01:14:31
564,Kashi,CN,39.45,75.98,78.8,26,75,11.18,broken clouds,2020-07-31 01:14:31
565,Kushmurun,KZ,52.45,64.63,67.08,75,100,5.48,overcast clouds,2020-07-31 01:14:31
566,Ust-Nera,RU,64.57,143.2,61.11,34,16,4.52,few clouds,2020-07-31 01:14:31
567,Alofi,NU,-19.06,-169.92,75.2,60,40,18.34,scattered clouds,2020-07-31 01:14:32
568,Tadine,NC,-21.55,167.88,74.37,84,80,12.57,broken clouds,2020-07-31 01:14:32
569,Cairns,AU,-16.92,145.77,75.2,50,40,16.11,scattered clouds,2020-07-31 01:10:55
570,Asadabad,IR,34.78,48.12,62.44,65,0,9.86,clear sky,2020-07-31 01:14:32
571,Umm Kaddadah,SD,13.6,26.69,82.13,58,38,14.92,scattered clouds,2020-07-31 01:14:32
572,Verkhoyansk,RU,67.54,133.38,59.49,50,0,5.82,clear sky,2020-07-31 01:14:32
573,Manturovo,RU,58.34,44.76,51.44,97,15,5.86,few clouds,2020-07-31 01:14:32
574,Gazanjyk,TM,39.24,55.52,74.95,43,0,4.94,clear sky,2020-07-31 01:14:32
575,Remedios,CU,22.49,-79.55,80.6,83,20,9.17,few clouds,2020-07-31 01:14:32
576,Cartagena,CO,10.4,-75.51,80.6,88,75,2.24,broken clouds,2020-07-31 01:14:33
577,Chapais,CA,49.78,-74.85,64.4,93,75,2.24,broken clouds,2020-07-31 01:14:33
578,Puerto Quijarro,BO,-17.78,-57.77,69.94,56,0,2.93,clear sky,2020-07-31 01:14:33
579,Les Cayes,HT,18.2,-73.75,82.09,77,100,8.88,overcast clouds,2020-07-31 01:14:33
580,Lagoa,PT,39.05,-27.98,69.78,76,20,12.55,few clouds,2020-07-31 01:14:33
581,Sivaki,RU,52.63,126.75,67.91,95,100,4.83,moderate rain,2020-07-31 01:14:33
582,Tiznit,MA,29.58,-9.5,81.48,40,42,1.72,scattered clouds,2020-07-31 01:14:33
583,Floriano,BR,-6.77,-43.02,79.5,38,2,7.47,clear sky,2020-07-31 01:14:34
584,Dahuk,IQ,36.87,42.99,77.85,21,0,3.76,clear sky,2020-07-31 01:14:34
585,Pafos,CY,34.77,32.42,77.0,83,0,3.36,clear sky,2020-07-31 01:14:34
586,Breves,BR,-1.68,-50.48,78.28,73,94,1.54,overcast clouds,2020-07-31 01:14:34
587,Boundiali,CI,9.52,-6.49,70.81,93,0,3.4,clear sky,2020-07-31 01:14:34
588,Veseloyarsk,RU,51.28,81.11,58.71,65,6,6.87,clear sky,2020-07-31 01:14:35
589,Redcliffe,AU,-27.23,153.1,68.0,48,20,13.87,few clouds,2020-07-31 01:13:33
590,Ostersund,SE,63.18,14.64,55.4,100,100,6.93,light rain,2020-07-31 01:14:35
591,Georgiyevka,KZ,43.04,74.71,68.0,60,40,4.47,scattered clouds,2020-07-31 01:14:35
592,Palana,RU,59.12,159.97,51.75,81,60,11.1,broken clouds,2020-07-31 01:14:35
593,Iracoubo,GF,5.48,-53.2,78.58,81,0,4.27,clear sky,2020-07-31 01:14:35
594,Dezful,IR,32.38,48.41,96.03,12,0,6.42,clear sky,2020-07-31 01:14:35
595,Kinablangan,PH,7.69,126.55,80.17,78,100,4.07,overcast clouds,2020-07-31 01:14:35
596,Samsun,TR,41.25,36.33,71.6,83,75,3.36,broken clouds,2020-07-31 01:14:35
597,Champerico,GT,14.3,-91.92,73.4,100,90,9.17,thunderstorm with rain,2020-07-31 01:14:36
598,Vostok,RU,46.49,135.88,79.74,61,27,2.53,scattered clouds,2020-07-31 01:14:36
599,Aktash,RU,50.3,87.73,41.31,89,33,1.97,scattered clouds,2020-07-31 01:14:36
600,Zyryanka,RU,65.75,150.85,56.64,46,96,6.58,overcast clouds,2020-07-31 01:14:36
601,Mingaora,PK,34.78,72.36,76.37,74,19,1.92,moderate rain,2020-07-31 01:14:36
602,Ruidoso,US,33.33,-105.67,87.01,20,20,9.17,few clouds,2020-07-31 01:14:36
603,Nouakchott,MR,18.09,-15.98,77.52,82,89,8.43,light rain,2020-07-31 01:14:36
604,Kazanskoye,RU,55.64,69.23,59.47,95,100,2.57,overcast clouds,2020-07-31 01:14:37
605,Kirovskiy,RU,45.09,133.51,78.53,71,2,2.93,clear sky,2020-07-31 01:14:37
606,Miri,MY,4.41,114.01,78.8,88,20,3.36,few clouds,2020-07-31 01:14:37
607,Simpang,ID,-1.27,104.08,77.36,80,100,4.74,overcast clouds,2020-07-31 01:14:37
608,Uyuni,BO,-20.46,-66.83,43.61,34,0,10.36,clear sky,2020-07-31 01:14:38
609,Aberystwyth,GB,52.42,-4.08,61.68,68,0,11.07,clear sky,2020-07-31 01:14:38
610,Samarai,PG,-10.62,150.67,75.81,70,93,16.35,overcast clouds,2020-07-31 01:14:38
611,Santa Cruz,BO,-17.8,-63.17,62.6,55,0,2.24,clear sky,2020-07-31 01:14:03
612,Bahir Dar,ET,11.59,37.39,59.74,95,100,6.17,heavy intensity rain,2020-07-31 01:14:38
613,Mitu,CO,1.2,-70.17,74.91,71,0,2.28,clear sky,2020-07-31 01:10:07
614,Conceicao Do Araguaia,BR,-8.26,-49.26,82.4,45,0,2.24,clear sky,2020-07-31 01:14:38
615,Muborak,UZ,39.26,65.15,76.32,32,62,5.3,light rain,2020-07-31 01:14:38
616,Nevers,FR,46.92,3.33,73.99,55,0,4.97,clear sky,2020-07-31 01:14:38
617,Juegang,CN,32.32,121.19,81.45,89,100,9.8,overcast clouds,2020-07-31 01:14:39
618,Kano,NG,12.0,8.52,74.53,82,100,13.69,light rain,2020-07-31 01:14:39
619,Konevo,RU,62.12,39.32,56.44,84,100,6.29,overcast clouds,2020-07-31 01:14:39
620,General Roca,AR,-39.03,-67.58,44.6,70,100,2.24,overcast clouds,2020-07-31 01:14:39
621,Les Trois-Ilets,MQ,14.54,-61.04,81.0,88,20,8.05,few clouds,2020-07-31 01:14:39
622,Bowen,AU,-20.02,148.23,73.99,60,0,12.75,clear sky,2020-07-31 01:13:32
623,Dongsheng,CN,39.82,109.98,73.17,61,9,11.65,clear sky,2020-07-31 01:14:40
624,Kattivakkam,IN,13.22,80.32,82.4,83,40,3.36,scattered clouds,2020-07-31 01:14:40
625,Gejiu,CN,23.31,103.16,65.1,96,61,2.06,broken clouds,2020-07-31 01:14:40
626,Saravan,AM,39.72,45.65,69.8,60,40,16.11,scattered clouds,2020-07-31 01:14:40
627,Launceston,AU,-41.45,147.17,50.0,87,40,13.87,scattered clouds,2020-07-31 01:14:40
628,Shimsk,RU,58.21,30.71,54.66,93,100,9.84,overcast clouds,2020-07-31 01:14:40
629,Hofn,IS,64.25,-15.21,50.4,86,100,15.99,overcast clouds,2020-07-31 01:14:40
630,Angoche,MZ,-16.23,39.91,69.76,68,0,14.27,clear sky,2020-07-31 01:14:41
631,Argostolion,GR,38.18,20.49,77.5,67,0,5.73,clear sky,2020-07-31 01:14:41
632,Vanimo,PG,-2.67,141.3,86.31,62,40,5.08,light rain,2020-07-31 01:14:41
633,Burgeo,CA,47.62,-57.62,62.44,93,97,3.69,overcast clouds,2020-07-31 01:14:41
634,Kloulklubed,PW,7.04,134.26,84.2,79,75,6.93,broken clouds,2020-07-31 01:14:41
635,Khani,GE,41.96,42.96,73.4,94,75,4.7,broken clouds,2020-07-31 01:14:41
636,Antalaha,MG,-14.9,50.28,66.47,85,0,6.26,clear sky,2020-07-31 01:14:41
637,Tabuk,PH,17.42,121.44,77.77,88,100,5.97,light rain,2020-07-31 01:14:42
638,Haines Junction,CA,60.75,-137.51,74.95,37,0,8.21,clear sky,2020-07-31 01:14:42
639,Gopalganj,IN,26.47,84.43,81.5,82,100,6.98,overcast clouds,2020-07-31 01:14:42
640,Ceska Ves,CZ,50.26,17.23,57.0,66,100,2.13,overcast clouds,2020-07-31 01:14:42
641,Qaqortoq,GL,60.72,-46.03,46.4,81,100,4.7,overcast clouds,2020-07-31 01:14:42
642,Banjar,ID,-8.19,114.97,78.8,88,40,13.87,scattered clouds,2020-07-31 01:14:42
643,Sauda,NO,59.65,6.35,54.0,99,88,2.19,overcast clouds,2020-07-31 01:14:43
644,Dumas,US,35.87,-101.97,84.0,47,1,19.57,clear sky,2020-07-31 01:14:43
645,Bireun,ID,5.2,96.7,79.75,69,94,4.59,overcast clouds,2020-07-31 01:14:43
646,Zabol,AF,32.25,67.25,66.09,24,0,2.28,clear sky,2020-07-31 01:14:43
647,Stange,NO,60.72,11.19,57.99,76,95,5.82,overcast clouds,2020-07-31 01:14:43
648,Oistins,BB,13.07,-59.53,82.4,78,20,10.29,few clouds,2020-07-31 01:14:43
649,Varnamo,SE,57.19,14.04,55.99,94,62,7.0,broken clouds,2020-07-31 01:14:44
650,Pisco,PE,-13.7,-76.22,60.8,82,0,12.75,clear sky,2020-07-31 01:14:44
651,Quelimane,MZ,-17.88,36.89,64.4,93,0,3.33,clear sky,2020-07-31 01:14:44
652,Nyeri,KE,-0.42,36.95,57.9,91,81,4.05,broken clouds,2020-07-31 01:14:44
653,Lake Havasu City,US,34.48,-114.32,117.0,6,1,8.1,clear sky,2020-07-31 01:14:44
654,Bud,US,39.45,-86.18,68.0,98,99,9.6,overcast clouds,2020-07-31 01:14:44
655,Yanam,IN,16.73,82.22,84.2,79,40,4.7,scattered clouds,2020-07-31 01:14:44
656,Punta Alta,AR,-38.88,-62.07,49.28,52,100,18.12,overcast clouds,2020-07-31 01:14:45
657,Turukhansk,RU,65.82,87.98,65.62,69,100,17.85,overcast clouds,2020-07-31 01:14:45
658,Deep River,CA,46.1,-77.5,73.4,83,1,3.47,clear sky,2020-07-31 01:14:45
659,Lorengau,PG,-2.02,147.27,86.22,67,100,11.9,overcast clouds,2020-07-31 01:14:45
660,Barcelos,PT,41.54,-8.62,66.99,88,75,1.12,broken clouds,2020-07-31 01:14:45
661,Tymovskoye,RU,50.85,142.66,70.43,64,91,7.52,overcast clouds,2020-07-31 01:14:46
662,Seminole,US,28.71,-81.21,87.8,55,40,3.36,thunderstorm,2020-07-31 01:12:46
663,Saint Anthony,US,45.02,-93.22,79.0,47,40,3.36,scattered clouds,2020-07-31 01:14:46
664,Izobilnyy,RU,45.37,41.71,66.2,48,0,2.24,clear sky,2020-07-31 01:14:46
665,Kastamonu,TR,41.5,33.67,55.81,88,0,1.12,clear sky,2020-07-31 01:14:46
666,Magadan,RU,59.57,150.8,58.19,60,100,2.75,overcast clouds,2020-07-31 01:14:47
667,Sagua La Grande,CU,22.81,-80.08,80.6,83,20,9.17,few clouds,2020-07-31 01:14:47
668,Sokolka,PL,53.41,23.5,55.99,67,23,7.38,few clouds,2020-07-31 01:14:47
669,Kingman,US,35.19,-114.05,107.6,8,1,9.17,clear sky,2020-07-31 01:11:52
670,Ahipara,NZ,-35.17,173.17,59.94,72,100,14.29,overcast clouds,2020-07-31 01:14:47
671,Mazara Del Vallo,IT,37.66,12.59,82.0,78,0,2.24,clear sky,2020-07-31 01:14:47
672,Otjiwarongo,NA,-20.46,16.65,49.98,44,0,12.01,clear sky,2020-07-31 01:14:47
673,Mihai Viteazu,RO,46.53,23.75,68.0,94,12,3.36,few clouds,2020-07-31 01:14:47
674,Marsa Matruh,EG,31.35,27.25,73.4,78,0,7.45,clear sky,2020-07-31 01:14:48
675,Mackay,AU,-21.15,149.2,70.0,64,39,16.11,scattered clouds,2020-07-31 01:14:48
676,Talakan,RU,50.32,130.37,77.86,71,100,5.37,light rain,2020-07-31 01:14:48
677,Eskil,TR,38.4,33.41,67.69,52,0,4.56,clear sky,2020-07-31 01:14:48
678,Delano,US,35.77,-119.25,100.4,16,1,4.7,clear sky,2020-07-31 01:14:48
679,Margate,GB,51.38,1.39,68.0,83,0,1.01,clear sky,2020-07-31 01:14:48
680,Aksarka,RU,66.56,67.8,51.21,83,0,5.7,clear sky,2020-07-31 01:14:48
681,Koungou,YT,-12.73,45.2,77.0,78,75,19.46,broken clouds,2020-07-31 01:14:49
682,Mweka,CD,-4.85,21.57,68.25,34,0,0.78,clear sky,2020-07-31 01:14:49
683,Lar,IN,26.2,83.97,83.19,80,100,5.97,overcast clouds,2020-07-31 01:14:49
684,Harper,LR,4.38,-7.72,75.18,85,100,7.2,overcast clouds,2020-07-31 01:14:49
685,Setubal,PT,38.52,-8.89,66.2,82,0,4.7,clear sky,2020-07-31 01:14:49
686,Ife,NG,7.47,4.57,70.77,94,100,4.18,overcast clouds,2020-07-31 01:14:49
687,Vizianagaram,IN,18.12,83.42,80.6,94,40,2.24,mist,2020-07-31 01:14:50
688,Sao Jose Da Coroa Grande,BR,-8.9,-35.15,73.27,86,37,10.47,light rain,2020-07-31 01:14:50
689,Avera,US,33.19,-82.53,80.6,78,40,6.93,scattered clouds,2020-07-31 01:14:50
690,Flin Flon,CA,54.77,-101.86,71.06,81,98,2.75,moderate rain,2020-07-31 01:14:50
691,Sechura,PE,-5.56,-80.82,64.0,73,0,13.02,clear sky,2020-07-31 01:14:50
692,Katobu,ID,-4.94,122.53,81.45,64,43,5.17,scattered clouds,2020-07-31 01:14:51
693,Simbahan,PH,6.3,120.58,83.7,77,100,15.46,moderate rain,2020-07-31 01:14:51
694,Maputo,MZ,-25.97,32.59,64.0,84,17,5.99,few clouds,2020-07-31 01:14:51
695,Berlin,DE,52.52,13.41,63.0,76,100,1.12,overcast clouds,2020-07-31 01:10:01
696,Agadez,NE,19.75,10.25,85.93,14,99,4.7,overcast clouds,2020-07-31 01:14:51
697,Vanderhoof,CA,54.02,-124.02,83.17,33,0,0.92,clear sky,2020-07-31 01:14:51
698,Talaya,RU,61.38,152.75,47.03,75,100,16.37,overcast clouds,2020-07-31 01:14:51
699,Gradignan,FR,44.77,-0.61,80.6,54,100,5.82,overcast clouds,2020-07-31 01:14:51
700,Ciudad Bolivar,VE,8.12,-63.55,83.37,68,0,2.21,light rain,2020-07-31 01:14:51
701,Omboue,GA,-1.57,9.26,71.91,83,99,6.89,overcast clouds,2020-07-31 01:14:52
702,Boa Vista,BR,2.82,-60.67,84.2,62,0,4.7,clear sky,2020-07-31 01:11:50
703,Carmo Do Rio Claro,BR,-20.97,-46.12,62.31,79,72,6.78,broken clouds,2020-07-31 01:14:52
704,Fort William,GB,56.82,-5.11,53.01,96,100,5.59,overcast clouds,2020-07-31 01:14:52
705,Ilinskiy,RU,55.62,38.12,57.0,82,99,6.71,overcast clouds,2020-07-31 01:14:52
